<<<<<<< HEAD
{
    "cityName": "Краснодар", 
    "doctors": [
        {
            "clinics": [
                {
                    "lat": 45.037896999999994, 
                    "title": "Общество с ограниченной ответственностью \"Апрель Кавказ\"", 
                    "telephone": "8-918-434-86-20, 8-988-150-91-77", 
                    "long": 38.988734, 
                    "address": "350002, Россия, Краснодарский край, г. Краснодар, ул.Северная, д.428, офис 3"
                }, 
                {
                    "lat": 45.037896999999994, 
                    "title": "Общество с ограниченной ответственностью \"Апрель Кавказ\"", 
                    "telephone": "8-918-434-86-20, 8-988-150-91-77", 
                    "long": 38.988734, 
                    "address": "350002, Россия, Краснодарский край, г. Краснодар, ул.Северная, д.428, офис 3"
                }, 
                {
                    "lat": 45.025055, 
                    "title": "Общество с ограниченной ответственностью «Клиника Екатерининская»", 
                    "telephone": "8861-238-40-30", 
                    "long": 38.959143, 
                    "address": "350063, Россия, Краснодарский край, г. Краснодар, ул. Кубанская Набережная, д. 37/1"
                }, 
                {
                    "lat": 45.025055, 
                    "title": "Общество с ограниченной ответственностью «Клиника Екатерининская»", 
                    "telephone": "8861-238-40-30", 
                    "long": 38.959143, 
                    "address": "350063, Россия, Краснодарский край, г. Краснодар, ул. Кубанская Набережная, д. 37/1"
                }, 
                {
                    "lat": 45.067443, 
                    "title": "Общество с ограниченной ответственностью «Мелодия здоровья 1»", 
                    "telephone": "8-918-1-888-304,", 
                    "long": 38.973588, 
                    "address": "350051, Россия, Краснодарский край, г. Краснодар, ул. Дзержинского, 42"
                }, 
                {
                    "lat": 45.067443, 
                    "title": "Общество с ограниченной ответственностью «Мелодия здоровья 1»", 
                    "telephone": "8-918-1-888-304,", 
                    "long": 38.973588, 
                    "address": "350051, Россия, Краснодарский край, г. Краснодар, ул. Дзержинского, 42"
                }, 
                {
                    "lat": 45.098162, 
                    "title": "Общество с ограниченной ответственностью «ВЕТА»", 
                    "telephone": "(8988) 245-52-70", 
                    "long": 39.110483, 
                    "address": "350062, Россия, Краснодарский край, г. Краснодар, Прикубанский округ, ул. им. Космонавта Гагарина, д. 75/4"
                }, 
                {
                    "lat": 45.098162, 
                    "title": "Общество с ограниченной ответственностью «ВЕТА»", 
                    "telephone": "(8988) 245-52-70", 
                    "long": 39.110483, 
                    "address": "350062, Россия, Краснодарский край, г. Краснодар, Прикубанский округ, ул. им. Космонавта Гагарина, д. 75/4"
                }, 
                {
                    "lat": 45.030387, 
                    "title": "Общество с ограниченной ответственностью «НОТА БЕНЕ»", 
                    "telephone": "(8918-90927-76) ", 
                    "long": 38.907041, 
                    "address": "350089, Россия, Краснодарский край, г. Краснодар, Западный округ, ул.Бульварное кольцо, дом 7, оф. №26-30, здания литер А."
                }, 
                {
                    "lat": 45.030387, 
                    "title": "Общество с ограниченной ответственностью «НОТА БЕНЕ»", 
                    "telephone": "(8918-90927-76) ", 
                    "long": 38.907041, 
                    "address": "350089, Россия, Краснодарский край, г. Краснодар, Западный округ, ул.Бульварное кольцо, дом 7, оф. №26-30, здания литер А."
                }, 
                {
                    "lat": 45.023877, 
                    "title": "Общество с ограниченной ответственностью «НАРУТО»", 
                    "telephone": "(8918) 012-23-92", 
                    "long": 38.970157, 
                    "address": "350005, Россия, Краснодарский край, г. Краснодар, ул. им. Байбакова Н.К., д. 6, 1 этаж, пом. 56-74"
                }, 
                {
                    "lat": 45.023877, 
                    "title": "Общество с ограниченной ответственностью «НАРУТО»", 
                    "telephone": "(8918) 012-23-92", 
                    "long": 38.970157, 
                    "address": "350005, Россия, Краснодарский край, г. Краснодар, ул. им. Байбакова Н.К., д. 6, 1 этаж, пом. 56-74"
                }, 
                {
                    "lat": 45.061019, 
                    "title": "Общество с ограниченной ответственностью «Краевой медицинский центр»", 
                    "telephone": "(8861) 274-86-49", 
                    "long": 39.021864, 
                    "address": "350901, Россия, Краснодарский край, г. Краснодар, ул. 1 Мая, 153"
                }, 
                {
                    "lat": 45.061019, 
                    "title": "Общество с ограниченной ответственностью «Краевой медицинский центр»", 
                    "telephone": "(8861) 274-86-49", 
                    "long": 39.021864, 
                    "address": "350901, Россия, Краснодарский край, г. Краснодар, ул. 1 Мая, 153"
                }, 
                {
                    "lat": 45.068181, 
                    "title": "Общество с ограниченной ответственностью \"Газпром трансгаз Краснодар\"", 
                    "telephone": "(861) 2241371", 
                    "long": 38.981889, 
                    "address": "350051, Россия, Краснодарский край, г. Краснодар, ул. Шоссе  Нефтяников, 53"
                }, 
                {
                    "lat": 45.068181, 
                    "title": "Общество с ограниченной ответственностью \"Газпром трансгаз Краснодар\"", 
                    "telephone": "(861) 2241371", 
                    "long": 38.981889, 
                    "address": "350051, Россия, Краснодарский край, г. Краснодар, ул. Шоссе  Нефтяников, 53"
                }, 
                {
                    "lat": 45.02475, 
                    "title": "Общество с ограниченной ответственностью «Стоматологический инновационный центр «Пикассо»", 
                    "telephone": "(8988) 244-76-46", 
                    "long": 38.959161, 
                    "address": "350063, Россия, Краснодарский край, г. Краснодар, ул. Кубанская Набережная, д. 37/10, оф. 149"
                }, 
                {
                    "lat": 45.02475, 
                    "title": "Общество с ограниченной ответственностью «Стоматологический инновационный центр «Пикассо»", 
                    "telephone": "(8988) 244-76-46", 
                    "long": 38.959161, 
                    "address": "350063, Россия, Краснодарский край, г. Краснодар, ул. Кубанская Набережная, д. 37/10, оф. 149"
                }, 
                {
                    "lat": 45.056301, 
                    "title": "Общество с ограниченной ответственностью «СКИЗБ»", 
                    "telephone": "(8918) 3887003", 
                    "long": 39.01801, 
                    "address": "350072, Россия, Краснодарский край, г. Краснодар, ул. 40-лет Победы, д. 33/5, кв. 59."
                }, 
                {
                    "lat": 45.056301, 
                    "title": "Общество с ограниченной ответственностью «СКИЗБ»", 
                    "telephone": "(8918) 3887003", 
                    "long": 39.01801, 
                    "address": "350072, Россия, Краснодарский край, г. Краснодар, ул. 40-лет Победы, д. 33/5, кв. 59."
                }, 
                {
                    "lat": 45.017773, 
                    "title": "Общество с ограниченной ответственностью «ДЕНТ-А-МЕД»", 
                    "telephone": "(928) 0404083", 
                    "long": 39.034683, 
                    "address": "350040, Россия, Краснодарский край, г. Краснодар, улица Ставропольская, дом 232, квартира 4"
                }, 
                {
                    "lat": 45.017773, 
                    "title": "Общество с ограниченной ответственностью «ДЕНТ-А-МЕД»", 
                    "telephone": "(928) 0404083", 
                    "long": 39.034683, 
                    "address": "350040, Россия, Краснодарский край, г. Краснодар, улица Ставропольская, дом 232, квартира 4"
                }, 
                {
                    "lat": 45.015186, 
                    "title": "государственное бюджетное образовательное учреждение высшего профессионального образования \"Кубанский государственный медицинский университет\" Министерства здравоохранения Российской Федерации", 
                    "telephone": "(861) 262-73-76", 
                    "long": 38.974469, 
                    "address": "350063, Россия, Краснодарский край, г. Краснодар, ул. Седина, д. 4"
                }, 
                {
                    "lat": 45.015186, 
                    "title": "государственное бюджетное образовательное учреждение высшего профессионального образования \"Кубанский государственный медицинский университет\" Министерства здравоохранения Российской Федерации", 
                    "telephone": "(861) 262-73-76", 
                    "long": 38.974469, 
                    "address": "350063, Россия, Краснодарский край, г. Краснодар, ул. Седина, д. 4"
                }, 
                {
                    "lat": 45.071657, 
                    "title": "Общество с ограниченной ответственностью «ОДОНТО-МЕД»", 
                    "telephone": "(8905-401-76-17) ", 
                    "long": 39.008389, 
                    "address": "350072, Россия, Краснодарский край, г. Краснодар, ул. им. Байбакова, дом 14, офис 1"
                }, 
                {
                    "lat": 45.071657, 
                    "title": "Общество с ограниченной ответственностью «ОДОНТО-МЕД»", 
                    "telephone": "(8905-401-76-17) ", 
                    "long": 39.008389, 
                    "address": "350072, Россия, Краснодарский край, г. Краснодар, ул. им. Байбакова, дом 14, офис 1"
                }, 
                {
                    "lat": 45.017264000000004, 
                    "title": "Индивидуальный предприниматель \"Дудко Андрей Валерьевич\"", 
                    "telephone": NaN, 
                    "long": 38.959961, 
                    "address": "350063, Россия, Краснодарский край, г. Краснодар, ул.Пушкина, д. 4, кв. 38"
                }, 
                {
                    "lat": 45.017264000000004, 
                    "title": "Индивидуальный предприниматель \"Дудко Андрей Валерьевич\"", 
                    "telephone": NaN, 
                    "long": 38.959961, 
                    "address": "350063, Россия, Краснодарский край, г. Краснодар, ул.Пушкина, д. 4, кв. 38"
                }, 
                {
                    "lat": 45.065998, 
                    "title": "Индивидуальный предприниматель \"Галиченко Ирина Владимировна\"", 
                    "telephone": "8988-385-74-15, 290-19-10", 
                    "long": 39.029338, 
                    "address": "350901, Россия, Краснодарский край, г. Краснодар, Черкасская, д. 79, кв.11"
                }, 
                {
                    "lat": 45.065998, 
                    "title": "Индивидуальный предприниматель \"Галиченко Ирина Владимировна\"", 
                    "telephone": "8988-385-74-15, 290-19-10", 
                    "long": 39.029338, 
                    "address": "350901, Россия, Краснодарский край, г. Краснодар, Черкасская, д. 79, кв.11"
                }, 
                {
                    "lat": 45.0364, 
                    "title": "Муниципальное бюджетное учреждение здравоохранения Детская городская поликлиника № 2", 
                    "telephone": "(861) 2554099", 
                    "long": 38.997671999999994, 
                    "address": "350038, Россия, Краснодарский край, г. Краснодар, Центральный внутригородской округ, ул. Северная, д. 500"
                }, 
                {
                    "lat": 45.0364, 
                    "title": "Муниципальное бюджетное учреждение здравоохранения Детская городская поликлиника № 2", 
                    "telephone": "(861) 2554099", 
                    "long": 38.997671999999994, 
                    "address": "350038, Россия, Краснодарский край, г. Краснодар, Центральный внутригородской округ, ул. Северная, д. 500"
                }, 
                {
                    "lat": 45.015421999999994, 
                    "title": "Федеральное государственное казенное учреждение \"419 военный госпиталь\" Министерства обороны Российской Федерации", 
                    "telephone": "(8-861) 262-35-47", 
                    "long": 38.960840999999995, 
                    "address": "350063, Россия, Краснодарский край, г. Краснодар, ул. Постовая, д. 6"
                }, 
                {
                    "lat": 45.015421999999994, 
                    "title": "Федеральное государственное казенное учреждение \"419 военный госпиталь\" Министерства обороны Российской Федерации", 
                    "telephone": "(8-861) 262-35-47", 
                    "long": 38.960840999999995, 
                    "address": "350063, Россия, Краснодарский край, г. Краснодар, ул. Постовая, д. 6"
                }, 
                {
                    "lat": 45.025527000000004, 
                    "title": "федеральное казённое учреждение здравоохранения \"Медико-санитарная часть № 23 Федеральной службы исполнения наказаний\"", 
                    "telephone": "8 (861) 234-13-96", 
                    "long": 39.067327, 
                    "address": "350018, Россия, Краснодарский край, г. Краснодар, Карасунский округ, ул. Камвольная, д. 10"
                }, 
                {
                    "lat": 45.025527000000004, 
                    "title": "федеральное казённое учреждение здравоохранения \"Медико-санитарная часть № 23 Федеральной службы исполнения наказаний\"", 
                    "telephone": "8 (861) 234-13-96", 
                    "long": 39.067327, 
                    "address": "350018, Россия, Краснодарский край, г. Краснодар, Карасунский округ, ул. Камвольная, д. 10"
                }, 
                {
                    "lat": 45.034909999999996, 
                    "title": "Общество с ограниченной ответственностью «Здоровье»", 
                    "telephone": "(8918) 1111747", 
                    "long": 39.099685, 
                    "address": "350912, Россия, Краснодарский край, г. Краснодар, ул.Тюляева,4\\1."
                }, 
                {
                    "lat": 45.034909999999996, 
                    "title": "Общество с ограниченной ответственностью «Здоровье»", 
                    "telephone": "(8918) 1111747", 
                    "long": 39.099685, 
                    "address": "350912, Россия, Краснодарский край, г. Краснодар, ул.Тюляева,4\\1."
                }, 
                {
                    "lat": 45.025973, 
                    "title": "Общество с ограниченной ответственностью «КетгутФарма+»", 
                    "telephone": NaN, 
                    "long": 38.973355, 
                    "address": "350000, Краснодарский край, г. Краснодар, ул. Красноармейская, 58"
                }, 
                {
                    "lat": 45.025973, 
                    "title": "Общество с ограниченной ответственностью «КетгутФарма+»", 
                    "telephone": NaN, 
                    "long": 38.973355, 
                    "address": "350000, Краснодарский край, г. Краснодар, ул. Красноармейская, 58"
                }, 
                {
                    "lat": 45.114404, 
                    "title": "Общество с ограниченной ответственностью «ФАРМ ПЛЮС»", 
                    "telephone": "(8918) 415-20-34", 
                    "long": 39.013195, 
                    "address": "350000, Россия, Краснодарский край, г. Краснодар, Прикубанский округ, с/т «Урожай», ул. Тенистая, д. 5"
                }, 
                {
                    "lat": 45.114404, 
                    "title": "Общество с ограниченной ответственностью «ФАРМ ПЛЮС»", 
                    "telephone": "(8918) 415-20-34", 
                    "long": 39.013195, 
                    "address": "350000, Россия, Краснодарский край, г. Краснодар, Прикубанский округ, с/т «Урожай», ул. Тенистая, д. 5"
                }, 
                {
                    "lat": 45.120414000000004, 
                    "title": "государственное бюджетное учреждение здравоохранения \"Специализированная психиатрическая больница № 7\" министерства здравоохранения Краснодарского края", 
                    "telephone": "8 (861) 228-86-40", 
                    "long": 39.025349, 
                    "address": "350087, Россия, Краснодарский край, г. Краснодар, пос. Российский, ул. 16-й Полевой участок, д. 11"
                }, 
                {
                    "lat": 45.120414000000004, 
                    "title": "государственное бюджетное учреждение здравоохранения \"Специализированная психиатрическая больница № 7\" министерства здравоохранения Краснодарского края", 
                    "telephone": "8 (861) 228-86-40", 
                    "long": 39.025349, 
                    "address": "350087, Россия, Краснодарский край, г. Краснодар, пос. Российский, ул. 16-й Полевой участок, д. 11"
                }, 
                {
                    "lat": 45.035483, 
                    "title": "государственное бюджетное учреждение здравоохранения \"Наркологический диспансер\" министерства здравоохранения Краснодарского края", 
                    "telephone": "8 (861) 236-65-02", 
                    "long": 39.007212, 
                    "address": "350038, Россия, Краснодарский край, г. Краснодар, ул. Северная, д. 493, Литер А, этаж 1, № помещения - 10"
                }, 
                {
                    "lat": 45.035483, 
                    "title": "государственное бюджетное учреждение здравоохранения \"Наркологический диспансер\" министерства здравоохранения Краснодарского края", 
                    "telephone": "8 (861) 236-65-02", 
                    "long": 39.007212, 
                    "address": "350038, Россия, Краснодарский край, г. Краснодар, ул. Северная, д. 493, Литер А, этаж 1, № помещения - 10"
                }, 
                {
                    "lat": 45.031375, 
                    "title": "Общество с ограниченной ответственностью «Дистрибьюторская компания  «Апрель»", 
                    "telephone": "8-903-401-66-63", 
                    "long": 38.916707, 
                    "address": "350089, Россия, Краснодарский край, г. Краснодар, Западный округ, пр. Чекистов,  34, корпус 1"
                }, 
                {
                    "lat": 45.031375, 
                    "title": "Общество с ограниченной ответственностью «Дистрибьюторская компания  «Апрель»", 
                    "telephone": "8-903-401-66-63", 
                    "long": 38.916707, 
                    "address": "350089, Россия, Краснодарский край, г. Краснодар, Западный округ, пр. Чекистов,  34, корпус 1"
                }, 
                {
                    "lat": 45.044272, 
                    "title": "Общество с ограниченной ответственностью МЕДИЦИНСКИЙ ЦЕНТР «ЭСТЕТИК МЕД»", 
                    "telephone": "(8988-668-92-22) ", 
                    "long": 38.943845, 
                    "address": "350004, Россия, Краснодарский край, г. Краснодар, ул. Передерия, д. 64, офис 504"
                }, 
                {
                    "lat": 45.044272, 
                    "title": "Общество с ограниченной ответственностью МЕДИЦИНСКИЙ ЦЕНТР «ЭСТЕТИК МЕД»", 
                    "telephone": "(8988-668-92-22) ", 
                    "long": 38.943845, 
                    "address": "350004, Россия, Краснодарский край, г. Краснодар, ул. Передерия, д. 64, офис 504"
                }, 
                {
                    "lat": 45.041515000000004, 
                    "title": "Индивидуальный предприниматель \"Мартиросян Нина Александровна\"", 
                    "telephone": "(8918-36-6-66-66, 965-489-97-79) ", 
                    "long": 38.979597999999996, 
                    "address": "350000, Россия, Краснодарский край, г. Краснодар, Центральный округ, ул. Хакурате, д. 12, кв. 96"
                }, 
                {
                    "lat": 45.041515000000004, 
                    "title": "Индивидуальный предприниматель \"Мартиросян Нина Александровна\"", 
                    "telephone": "(8918-36-6-66-66, 965-489-97-79) ", 
                    "long": 38.979597999999996, 
                    "address": "350000, Россия, Краснодарский край, г. Краснодар, Центральный округ, ул. Хакурате, д. 12, кв. 96"
                }, 
                {
                    "lat": 45.030999, 
                    "title": "Индивидуальный предприниматель \"Хлыстов Виктор Владимирович\"", 
                    "telephone": NaN, 
                    "long": 38.903565, 
                    "address": "350089, Россия, Краснодарский край, г. Краснодар, ул.70лет Октября, д. 16 кв.83"
                }, 
                {
                    "lat": 45.030999, 
                    "title": "Индивидуальный предприниматель \"Хлыстов Виктор Владимирович\"", 
                    "telephone": NaN, 
                    "long": 38.903565, 
                    "address": "350089, Россия, Краснодарский край, г. Краснодар, ул.70лет Октября, д. 16 кв.83"
                }, 
                {
                    "lat": 45.03075, 
                    "title": "Общество с ограниченной ответственностью «Лидер»", 
                    "telephone": "(8988) 47-77-000", 
                    "long": 39.08506, 
                    "address": "350055, Россия, Краснодарский край, г. Краснодар, п. Знаменский, Карасунский округ, 2-й пр. Знаменский, д. 25"
                }, 
                {
                    "lat": 45.03075, 
                    "title": "Общество с ограниченной ответственностью «Лидер»", 
                    "telephone": "(8988) 47-77-000", 
                    "long": 39.08506, 
                    "address": "350055, Россия, Краснодарский край, г. Краснодар, п. Знаменский, Карасунский округ, 2-й пр. Знаменский, д. 25"
                }, 
                {
                    "lat": 45.020047999999996, 
                    "title": "муниципальное бюджетное учреждение здравоохранения Городская поликлиника № 3", 
                    "telephone": "239-09-21", 
                    "long": 39.004886, 
                    "address": "350001, Россия, Краснодарский край, г. Краснодар, Центральный внутригородской округ, ул. Ставропольская, д. 142"
                }, 
                {
                    "lat": 45.020047999999996, 
                    "title": "муниципальное бюджетное учреждение здравоохранения Городская поликлиника № 3", 
                    "telephone": "239-09-21", 
                    "long": 39.004886, 
                    "address": "350001, Россия, Краснодарский край, г. Краснодар, Центральный внутригородской округ, ул. Ставропольская, д. 142"
                }, 
                {
                    "lat": 45.120414000000004, 
                    "title": "Индивидуальный предприниматель \"Толкушкин Владимир Владимирович\"", 
                    "telephone": "(8918) 963-55-81", 
                    "long": 39.025349, 
                    "address": "350087, Россия, Краснодарский край, г. Краснодар, ул. 16 Полевой участок, д. 19 (общ)"
                }, 
                {
                    "lat": 45.120414000000004, 
                    "title": "Индивидуальный предприниматель \"Толкушкин Владимир Владимирович\"", 
                    "telephone": "(8918) 963-55-81", 
                    "long": 39.025349, 
                    "address": "350087, Россия, Краснодарский край, г. Краснодар, ул. 16 Полевой участок, д. 19 (общ)"
                }, 
                {
                    "lat": 45.031553, 
                    "title": "Общество с ограниченной ответственностью \"АПТЕКА \"АПРЕЛЬ ВОЛГОГРАД\"", 
                    "telephone": "(8(861)) 273-59-93, 471-44-44", 
                    "long": 38.917057, 
                    "address": "350089, Россия, Краснодарский край, г. Краснодар, проспект Чекистов,  34/1, офис 6"
                }, 
                {
                    "lat": 45.031553, 
                    "title": "Общество с ограниченной ответственностью \"АПТЕКА \"АПРЕЛЬ ВОЛГОГРАД\"", 
                    "telephone": "(8(861)) 273-59-93, 471-44-44", 
                    "long": 38.917057, 
                    "address": "350089, Россия, Краснодарский край, г. Краснодар, проспект Чекистов,  34/1, офис 6"
                }, 
                {
                    "lat": 45.042496, 
                    "title": "Общество с ограниченной ответственностью «Альфа»", 
                    "telephone": "8918-274-2562", 
                    "long": 38.911533, 
                    "address": "350089, Россия, Краснодарский край, г. Краснодар, бульвар им. Клары Лучко, д. 12, офис 500"
                }, 
                {
                    "lat": 45.042496, 
                    "title": "Общество с ограниченной ответственностью «Альфа»", 
                    "telephone": "8918-274-2562", 
                    "long": 38.911533, 
                    "address": "350089, Россия, Краснодарский край, г. Краснодар, бульвар им. Клары Лучко, д. 12, офис 500"
                }, 
                {
                    "lat": 45.018251, 
                    "title": "Индивидуальный предприниматель \"Хачатурова Вероника Анатольевна\"", 
                    "telephone": "(928) 0404083", 
                    "long": 38.994815, 
                    "address": "350001, Россия, Краснодарский край, г. Краснодар, ул. Ставропольская, дом 80, кв. 45"
                }, 
                {
                    "lat": 45.018251, 
                    "title": "Индивидуальный предприниматель \"Хачатурова Вероника Анатольевна\"", 
                    "telephone": "(928) 0404083", 
                    "long": 38.994815, 
                    "address": "350001, Россия, Краснодарский край, г. Краснодар, ул. Ставропольская, дом 80, кв. 45"
                }, 
                {
                    "lat": 45.069792, 
                    "title": "Индивидуальный предприниматель \"Красноперова Елена Георгиевна\"", 
                    "telephone": NaN, 
                    "long": 38.980775, 
                    "address": "350052, Россия, Краснодарский край, г. Краснодар, ул. Кольцевая, д. 17, кв. 4"
                }, 
                {
                    "lat": 45.069792, 
                    "title": "Индивидуальный предприниматель \"Красноперова Елена Георгиевна\"", 
                    "telephone": NaN, 
                    "long": 38.980775, 
                    "address": "350052, Россия, Краснодарский край, г. Краснодар, ул. Кольцевая, д. 17, кв. 4"
                }, 
                {
                    "lat": 45.072936, 
                    "title": "Общество с ограниченной ответственностью «НОРМА»", 
                    "telephone": "(8918-460-26-77) ", 
                    "long": 38.981646000000005, 
                    "address": "350051, Россия, Краснодарский край, г. Краснодар, проезд им. Репина, д. 28, кв. 4"
                }, 
                {
                    "lat": 45.072936, 
                    "title": "Общество с ограниченной ответственностью «НОРМА»", 
                    "telephone": "(8918-460-26-77) ", 
                    "long": 38.981646000000005, 
                    "address": "350051, Россия, Краснодарский край, г. Краснодар, проезд им. Репина, д. 28, кв. 4"
                }, 
                {
                    "lat": 45.056511, 
                    "title": "Муниципальное казенное учреждение «Центр по обеспечению деятельности учреждений департамента образования администрации муниципального образования город Краснодар»", 
                    "telephone": "(918) 2770499", 
                    "long": 39.001238, 
                    "address": "350072, Россия, Краснодарский край, г. Краснодар, ул. Московская, д. 55Г"
                }, 
                {
                    "lat": 45.056511, 
                    "title": "Муниципальное казенное учреждение «Центр по обеспечению деятельности учреждений департамента образования администрации муниципального образования город Краснодар»", 
                    "telephone": "(918) 2770499", 
                    "long": 39.001238, 
                    "address": "350072, Россия, Краснодарский край, г. Краснодар, ул. Московская, д. 55Г"
                }, 
                {
                    "lat": 45.137322999999995, 
                    "title": "Индивидуальный предприниматель \"Халаби Акрам \"", 
                    "telephone": NaN, 
                    "long": 38.99548, 
                    "address": "350067, Россия, Краснодарский край, г. Краснодар, Прикубанский округ, ул. 9-я Тихая, д.23, кв. 74"
                }, 
                {
                    "lat": 45.137322999999995, 
                    "title": "Индивидуальный предприниматель \"Халаби Акрам \"", 
                    "telephone": NaN, 
                    "long": 38.99548, 
                    "address": "350067, Россия, Краснодарский край, г. Краснодар, Прикубанский округ, ул. 9-я Тихая, д.23, кв. 74"
                }, 
                {
                    "lat": 45.029311, 
                    "title": "Общество с ограниченной ответственностью «Клиника эстетической стоматологии «АртДент»", 
                    "telephone": NaN, 
                    "long": 38.914326, 
                    "address": "350089, Россия, Краснодарский край, г. Краснодар, пр. Чекистов, д. 26/3, помещение 1"
                }, 
                {
                    "lat": 45.029311, 
                    "title": "Общество с ограниченной ответственностью «Клиника эстетической стоматологии «АртДент»", 
                    "telephone": NaN, 
                    "long": 38.914326, 
                    "address": "350089, Россия, Краснодарский край, г. Краснодар, пр. Чекистов, д. 26/3, помещение 1"
                }, 
                {
                    "lat": 45.04717, 
                    "title": "Общество с ограниченной ответственностью «Эстетик»", 
                    "telephone": "(8989) 262-79-86", 
                    "long": 38.932742, 
                    "address": "350038, Россия, Краснодарский край, г. Краснодар, Центральный округ, ул. Северная, д. 447, литер В, 3 этаж, часть помещения № 15"
                }, 
                {
                    "lat": 45.04717, 
                    "title": "Общество с ограниченной ответственностью «Эстетик»", 
                    "telephone": "(8989) 262-79-86", 
                    "long": 38.932742, 
                    "address": "350038, Россия, Краснодарский край, г. Краснодар, Центральный округ, ул. Северная, д. 447, литер В, 3 этаж, часть помещения № 15"
                }, 
                {
                    "lat": 45.032591, 
                    "title": "Муниципальное бюджетное учреждение муниципального образования город Краснодар «Комплексный спортивно-оздоровительный центр «Ольгинка»", 
                    "telephone": "(8918) 44-94-778", 
                    "long": 38.978421000000004, 
                    "address": "350000, Россия, Краснодарский край, г. Краснодар, ул. Коммунаров, д. 150"
                }, 
                {
                    "lat": 45.032591, 
                    "title": "Муниципальное бюджетное учреждение муниципального образования город Краснодар «Комплексный спортивно-оздоровительный центр «Ольгинка»", 
                    "telephone": "(8918) 44-94-778", 
                    "long": 38.978421000000004, 
                    "address": "350000, Россия, Краснодарский край, г. Краснодар, ул. Коммунаров, д. 150"
                }, 
                {
                    "lat": 45.031579, 
                    "title": "Общество с ограниченной ответственностью «КОМФОРТ»", 
                    "telephone": NaN, 
                    "long": 39.127479, 
                    "address": "350912, Россия, Краснодарский край, г. Краснодар, Карасунский округ, ул. Фадеева, д. 429"
                }, 
                {
                    "lat": 45.031579, 
                    "title": "Общество с ограниченной ответственностью «КОМФОРТ»", 
                    "telephone": NaN, 
                    "long": 39.127479, 
                    "address": "350912, Россия, Краснодарский край, г. Краснодар, Карасунский округ, ул. Фадеева, д. 429"
                }, 
                {
                    "lat": 45.061681, 
                    "title": "Общество с ограниченной ответственностью «Славянка М»", 
                    "telephone": "(8918) 490-51-92", 
                    "long": 39.001553, 
                    "address": "350072, Россия, Краснодарский край, г. Краснодар, ул. Зиповская, д. 10"
                }, 
                {
                    "lat": 45.061681, 
                    "title": "Общество с ограниченной ответственностью «Славянка М»", 
                    "telephone": "(8918) 490-51-92", 
                    "long": 39.001553, 
                    "address": "350072, Россия, Краснодарский край, г. Краснодар, ул. Зиповская, д. 10"
                }, 
                {
                    "lat": 45.025285, 
                    "title": "Общество с ограниченной ответственностью «Арм-Юг»", 
                    "telephone": "8-918-443-47-47", 
                    "long": 38.963743, 
                    "address": "350000, Россия, Краснодарский край, г. Краснодар, ул. Пашковская/ Кирова, д. 31/101"
                }, 
                {
                    "lat": 45.025285, 
                    "title": "Общество с ограниченной ответственностью «Арм-Юг»", 
                    "telephone": "8-918-443-47-47", 
                    "long": 38.963743, 
                    "address": "350000, Россия, Краснодарский край, г. Краснодар, ул. Пашковская/ Кирова, д. 31/101"
                }, 
                {
                    "lat": 45.011625, 
                    "title": "Общество с ограниченной ответственностью «ВИОЛА»", 
                    "telephone": "(9530843268) ", 
                    "long": 39.079661, 
                    "address": "350061, Россия, Краснодарский край, г. Краснодар, ул. им. Дмитрия Благоева, д. 2"
                }, 
                {
                    "lat": 45.011625, 
                    "title": "Общество с ограниченной ответственностью «ВИОЛА»", 
                    "telephone": "(9530843268) ", 
                    "long": 39.079661, 
                    "address": "350061, Россия, Краснодарский край, г. Краснодар, ул. им. Дмитрия Благоева, д. 2"
                }, 
                {
                    "lat": 45.013944, 
                    "title": "Общество с ограниченной ответственностью «СТРОЙТЕХ»", 
                    "telephone": NaN, 
                    "long": 39.133641, 
                    "address": "350910, Краснодарский край, г. Краснодар, пгт. Пашковский,  ул. Кирова, 200"
                }, 
                {
                    "lat": 45.013944, 
                    "title": "Общество с ограниченной ответственностью «СТРОЙТЕХ»", 
                    "telephone": NaN, 
                    "long": 39.133641, 
                    "address": "350910, Краснодарский край, г. Краснодар, пгт. Пашковский,  ул. Кирова, 200"
                }, 
                {
                    "lat": 45.004079, 
                    "title": "Индивидуальный предприниматель \"Палько Евгений Николаевич\"", 
                    "telephone": "(8988-242-42-46) ", 
                    "long": 39.070184000000005, 
                    "address": "352117, Россия, Краснодарский край, г. Краснодар, ул. Игнатова, дом 65, кв. 9"
                }, 
                {
                    "lat": 45.004079, 
                    "title": "Индивидуальный предприниматель \"Палько Евгений Николаевич\"", 
                    "telephone": "(8988-242-42-46) ", 
                    "long": 39.070184000000005, 
                    "address": "352117, Россия, Краснодарский край, г. Краснодар, ул. Игнатова, дом 65, кв. 9"
                }, 
                {
                    "lat": 45.059319, 
                    "title": "муниципальное бюджетное учреждение здравоохранения Детская городская клиническая больница № 1", 
                    "telephone": "(8918) 2326822", 
                    "long": 38.917192, 
                    "address": "350033, Россия, Краснодарский край, г. Краснодар, Прикубанский внутригородской округ, улица им. Академика Лукьяненко П.П., дом 97"
                }, 
                {
                    "lat": 45.059319, 
                    "title": "муниципальное бюджетное учреждение здравоохранения Детская городская клиническая больница № 1", 
                    "telephone": "(8918) 2326822", 
                    "long": 38.917192, 
                    "address": "350033, Россия, Краснодарский край, г. Краснодар, Прикубанский внутригородской округ, улица им. Академика Лукьяненко П.П., дом 97"
                }, 
                {
                    "lat": 45.065437, 
                    "title": "Муниципальное бюджетное учреждение здравоохранения Городская поликлиника №16", 
                    "telephone": "(861) 2520374", 
                    "long": 39.001965999999996, 
                    "address": "350072, Россия, Краснодарский край, г. Краснодар, Прикубанский  внутригородской округ, ул. Московская, 66."
                }, 
                {
                    "lat": 45.065437, 
                    "title": "Муниципальное бюджетное учреждение здравоохранения Городская поликлиника №16", 
                    "telephone": "(861) 2520374", 
                    "long": 39.001965999999996, 
                    "address": "350072, Россия, Краснодарский край, г. Краснодар, Прикубанский  внутригородской округ, ул. Московская, 66."
                }, 
                {
                    "lat": 45.085952, 
                    "title": "Общество с ограниченной ответственностью «Апрель 2014»", 
                    "telephone": "(861) 2735993", 
                    "long": 39.004383000000004, 
                    "address": "350072, Россия, Краснодарский край, г. Краснодар, ул. Агрохимическая, д. 114, помещение № 7"
                }, 
                {
                    "lat": 45.085952, 
                    "title": "Общество с ограниченной ответственностью «Апрель 2014»", 
                    "telephone": "(861) 2735993", 
                    "long": 39.004383000000004, 
                    "address": "350072, Россия, Краснодарский край, г. Краснодар, ул. Агрохимическая, д. 114, помещение № 7"
                }, 
                {
                    "lat": 45.023877, 
                    "title": "Общество с ограниченной ответственностью «ФАРМАДЕНТ»", 
                    "telephone": "(8900-277-58-12) ", 
                    "long": 38.970157, 
                    "address": "350072, Россия, Краснодарский край, г. Краснодар, ул. им. Рахманова С.В., д. 24, пом. 3"
                }, 
                {
                    "lat": 45.023877, 
                    "title": "Общество с ограниченной ответственностью «ФАРМАДЕНТ»", 
                    "telephone": "(8900-277-58-12) ", 
                    "long": 38.970157, 
                    "address": "350072, Россия, Краснодарский край, г. Краснодар, ул. им. Рахманова С.В., д. 24, пом. 3"
                }, 
                {
                    "lat": 45.037896999999994, 
                    "title": "Общество с ограниченной ответственностью «Апрель Кубань»", 
                    "telephone": "(8612735993) ", 
                    "long": 38.988734, 
                    "address": "350002, Россия, Краснодарский край, г. Краснодар, ул. Северная, д. 428, офис 3"
                }, 
                {
                    "lat": 45.037896999999994, 
                    "title": "Общество с ограниченной ответственностью «Апрель Кубань»", 
                    "telephone": "(8612735993) ", 
                    "long": 38.988734, 
                    "address": "350002, Россия, Краснодарский край, г. Краснодар, ул. Северная, д. 428, офис 3"
                }, 
                {
                    "lat": 45.037896999999994, 
                    "title": "Общество с ограниченной ответственностью «Медцентр На Минской»", 
                    "telephone": "(8918) 461-71-45", 
                    "long": 38.936488, 
                    "address": "350004, Россия, Краснодарский край, г. Краснодар, ул. Минская, д. 122/9"
                }, 
                {
                    "lat": 45.037896999999994, 
                    "title": "Общество с ограниченной ответственностью «Медцентр На Минской»", 
                    "telephone": "(8918) 461-71-45", 
                    "long": 38.936488, 
                    "address": "350004, Россия, Краснодарский край, г. Краснодар, ул. Минская, д. 122/9"
                }, 
                {
                    "lat": 45.054092, 
                    "title": "Общество с ограниченной ответственностью «Три-З-СитиЛаб»", 
                    "telephone": "(8938) 3045985", 
                    "long": 38.936496999999996, 
                    "address": "350047, Россия, Краснодарский край, г. Краснодар, ул. Красных Партизан, д. 18"
                }, 
                {
                    "lat": 45.054092, 
                    "title": "Общество с ограниченной ответственностью «Три-З-СитиЛаб»", 
                    "telephone": "(8938) 3045985", 
                    "long": 38.936496999999996, 
                    "address": "350047, Россия, Краснодарский край, г. Краснодар, ул. Красных Партизан, д. 18"
                }, 
                {
                    "lat": 45.008508, 
                    "title": "Муниципальное бюджетное учреждение здравоохранения Городская поликлиника № 27", 
                    "telephone": "(861) 2373682", 
                    "long": 39.079615999999994, 
                    "address": "350061, Россия, Краснодарский край, г. Краснодар, Карасунский внутригородской округ, ул. Дмитрия Благоева, д. 16."
                }, 
                {
                    "lat": 45.008508, 
                    "title": "Муниципальное бюджетное учреждение здравоохранения Городская поликлиника № 27", 
                    "telephone": "(861) 2373682", 
                    "long": 39.079615999999994, 
                    "address": "350061, Россия, Краснодарский край, г. Краснодар, Карасунский внутригородской округ, ул. Дмитрия Благоева, д. 16."
                }, 
                {
                    "lat": 45.028566, 
                    "title": "Индивидуальный предприниматель \"Кирилихина Алевтина Сергеевна\"", 
                    "telephone": NaN, 
                    "long": 38.912116999999995, 
                    "address": "350089, Россия, Краснодарский край, г. Краснодар, ул. Проспект Чекистов д.22, кв.90."
                }, 
                {
                    "lat": 45.028566, 
                    "title": "Индивидуальный предприниматель \"Кирилихина Алевтина Сергеевна\"", 
                    "telephone": NaN, 
                    "long": 38.912116999999995, 
                    "address": "350089, Россия, Краснодарский край, г. Краснодар, ул. Проспект Чекистов д.22, кв.90."
                }, 
                {
                    "lat": 45.084590000000006, 
                    "title": "Общество с ограниченной ответственностью «Оникс-Дент»", 
                    "telephone": "(906) 431-93-60", 
                    "long": 38.900933, 
                    "address": "350012, Россия, Краснодарский край, г. Краснодар, Прикубанский внутригородской округ, ул. Красных партизан, дом 105, нежилые помещения № 1-9, этаж: 1, литер: А"
                }, 
                {
                    "lat": 45.084590000000006, 
                    "title": "Общество с ограниченной ответственностью «Оникс-Дент»", 
                    "telephone": "(906) 431-93-60", 
                    "long": 38.900933, 
                    "address": "350012, Россия, Краснодарский край, г. Краснодар, Прикубанский внутригородской округ, ул. Красных партизан, дом 105, нежилые помещения № 1-9, этаж: 1, литер: А"
                }, 
                {
                    "lat": 45.102781, 
                    "title": "Общество с ограниченной ответственностью «Клиника лечебно-восстановительной медицины «Здоровье и долголетие»", 
                    "telephone": "(8918) 3619646", 
                    "long": 38.975421000000004, 
                    "address": "350005, Россия, Краснодарский край, г. Краснодар, ул. имени Александра Покрышкина, д. 4/6, литер А, помещение № 45-50, 63-68."
                }, 
                {
                    "lat": 45.102781, 
                    "title": "Общество с ограниченной ответственностью «Клиника лечебно-восстановительной медицины «Здоровье и долголетие»", 
                    "telephone": "(8918) 3619646", 
                    "long": 38.975421000000004, 
                    "address": "350005, Россия, Краснодарский край, г. Краснодар, ул. имени Александра Покрышкина, д. 4/6, литер А, помещение № 45-50, 63-68."
                }, 
                {
                    "lat": 45.036929, 
                    "title": "Общество с ограниченной ответственностью «Гиппокамп Юг»", 
                    "telephone": "(8918) 313-47-89", 
                    "long": 38.979212, 
                    "address": "350015, Россия, Краснодарский край, г. Краснодар, ул. Коммунаров, д. 186"
                }, 
                {
                    "lat": 45.036929, 
                    "title": "Общество с ограниченной ответственностью «Гиппокамп Юг»", 
                    "telephone": "(8918) 313-47-89", 
                    "long": 38.979212, 
                    "address": "350015, Россия, Краснодарский край, г. Краснодар, ул. Коммунаров, д. 186"
                }, 
                {
                    "lat": 45.03305, 
                    "title": "Общество с ограниченной ответственностью «НикоМед»", 
                    "telephone": NaN, 
                    "long": 38.921296999999996, 
                    "address": "350089, Краснодарский край, г. Краснодар, Западный административный округ, пр. Чекистов, д. 42, кв. 208"
                }, 
                {
                    "lat": 45.03305, 
                    "title": "Общество с ограниченной ответственностью «НикоМед»", 
                    "telephone": NaN, 
                    "long": 38.921296999999996, 
                    "address": "350089, Краснодарский край, г. Краснодар, Западный административный округ, пр. Чекистов, д. 42, кв. 208"
                }, 
                {
                    "lat": 45.027088, 
                    "title": "Федеральное бюджетное учреждение здравоохранения \"Центр гигиены и эпидемиологии в Краснодарском крае\"", 
                    "telephone": "8-861-267-34-01, 267-34-02", 
                    "long": 38.968854, 
                    "address": "350000, Россия, Краснодарский край, г. Краснодар, ул. Гоголя/Рашпилевская, д. 56/1 // 61/1"
                }, 
                {
                    "lat": 45.027088, 
                    "title": "Федеральное бюджетное учреждение здравоохранения \"Центр гигиены и эпидемиологии в Краснодарском крае\"", 
                    "telephone": "8-861-267-34-01, 267-34-02", 
                    "long": 38.968854, 
                    "address": "350000, Россия, Краснодарский край, г. Краснодар, ул. Гоголя/Рашпилевская, д. 56/1 // 61/1"
                }, 
                {
                    "lat": 45.033955, 
                    "title": "Общество с ограниченной ответственностью «И1 КРАСНОДАР»", 
                    "telephone": "(891865-97-006) ", 
                    "long": 38.976095, 
                    "address": "350000, Россия, Краснодарский край, г. Краснодар, ул.Красноармейская,100,офис 135."
                }, 
                {
                    "lat": 45.033955, 
                    "title": "Общество с ограниченной ответственностью «И1 КРАСНОДАР»", 
                    "telephone": "(891865-97-006) ", 
                    "long": 38.976095, 
                    "address": "350000, Россия, Краснодарский край, г. Краснодар, ул.Красноармейская,100,офис 135."
                }, 
                {
                    "lat": 45.057906, 
                    "title": "Общество с ограниченной ответственностью «Дент-Реал Плюс»", 
                    "telephone": "(8928) 040-40-83", 
                    "long": 38.960437, 
                    "address": "350000, Россия, Краснодарский край, г. Краснодар, Прикубанский округ, ул. им. Тургенева, дом 145, квартира 4"
                }, 
                {
                    "lat": 45.057906, 
                    "title": "Общество с ограниченной ответственностью «Дент-Реал Плюс»", 
                    "telephone": "(8928) 040-40-83", 
                    "long": 38.960437, 
                    "address": "350000, Россия, Краснодарский край, г. Краснодар, Прикубанский округ, ул. им. Тургенева, дом 145, квартира 4"
                }, 
                {
                    "lat": 45.021838, 
                    "title": "Муниципальное бюджетное учреждение здравоохранения Участковая больница \"Старокорсунская\"", 
                    "telephone": "(861) 2348744", 
                    "long": 38.980712, 
                    "address": "350908, Россия, Краснодарский край, г. Краснодар, Карасунский внутригородской округ, ст. Старокорсунская, ул. Ленина, д.82"
                }, 
                {
                    "lat": 45.021838, 
                    "title": "Муниципальное бюджетное учреждение здравоохранения Участковая больница \"Старокорсунская\"", 
                    "telephone": "(861) 2348744", 
                    "long": 38.980712, 
                    "address": "350908, Россия, Краснодарский край, г. Краснодар, Карасунский внутригородской округ, ст. Старокорсунская, ул. Ленина, д.82"
                }, 
                {
                    "lat": 45.029030999999996, 
                    "title": "Муниципальное бюджетное учреждение здравоохранения Городская поликлиника № 17", 
                    "telephone": "(88612) 236-99-37", 
                    "long": 39.089731, 
                    "address": "350080, Россия, Краснодарский край, г. Краснодар, Карасунский внутригородской округ, ул. Симферопольская, д.16"
                }, 
                {
                    "lat": 45.029030999999996, 
                    "title": "Муниципальное бюджетное учреждение здравоохранения Городская поликлиника № 17", 
                    "telephone": "(88612) 236-99-37", 
                    "long": 39.089731, 
                    "address": "350080, Россия, Краснодарский край, г. Краснодар, Карасунский внутригородской округ, ул. Симферопольская, д.16"
                }, 
                {
                    "lat": 45.045495, 
                    "title": "Муниципальное бюджетное учреждение здравоохранения Детская городская поликлиника № 1", 
                    "telephone": "(8861) 255-63-11", 
                    "long": 38.933398, 
                    "address": "350004, Россия, Краснодарский край, г. Краснодар, Западный внутригородской округ, ул. им. Тургенева/ул. им. Володи Головатого, д. 23/198"
                }, 
                {
                    "lat": 45.045495, 
                    "title": "Муниципальное бюджетное учреждение здравоохранения Детская городская поликлиника № 1", 
                    "telephone": "(8861) 255-63-11", 
                    "long": 38.933398, 
                    "address": "350004, Россия, Краснодарский край, г. Краснодар, Западный внутригородской округ, ул. им. Тургенева/ул. им. Володи Головатого, д. 23/198"
                }, 
                {
                    "lat": 45.051284, 
                    "title": "Автономная некоммерческая образовательная организация высшего профессионального образования «Институт экономики и управления в медицине и социальной сфере»", 
                    "telephone": "(252-37-52) ", 
                    "long": 38.998175, 
                    "address": "350042, Россия, Краснодарский край, г. Краснодар, Центральный округ, ул. Садовая, д. 218"
                }, 
                {
                    "lat": 45.051284, 
                    "title": "Автономная некоммерческая образовательная организация высшего профессионального образования «Институт экономики и управления в медицине и социальной сфере»", 
                    "telephone": "(252-37-52) ", 
                    "long": 38.998175, 
                    "address": "350042, Россия, Краснодарский край, г. Краснодар, Центральный округ, ул. Садовая, д. 218"
                }, 
                {
                    "lat": 45.0498, 
                    "title": "Общество с ограниченной ответственностью «Азбука Красоты»", 
                    "telephone": "(928) 2377799", 
                    "long": 38.977406, 
                    "address": "350000, Россия, Краснодарский край, г. Краснодар, Западный округ, ул.Красная, д.155/2"
                }, 
                {
                    "lat": 45.0498, 
                    "title": "Общество с ограниченной ответственностью «Азбука Красоты»", 
                    "telephone": "(928) 2377799", 
                    "long": 38.977406, 
                    "address": "350000, Россия, Краснодарский край, г. Краснодар, Западный округ, ул.Красная, д.155/2"
                }, 
                {
                    "lat": 45.055365, 
                    "title": "Общество с ограниченной ответственностью \"Технопартнер\"", 
                    "telephone": "(988) 5248789", 
                    "long": 39.019735, 
                    "address": "350072, Россия, Краснодарский край, г. Краснодар, улица им. 40-летия Победы, дом 144/4, корпус 1П/А, офис 3"
                }, 
                {
                    "lat": 45.055365, 
                    "title": "Общество с ограниченной ответственностью \"Технопартнер\"", 
                    "telephone": "(988) 5248789", 
                    "long": 39.019735, 
                    "address": "350072, Россия, Краснодарский край, г. Краснодар, улица им. 40-летия Победы, дом 144/4, корпус 1П/А, офис 3"
                }, 
                {
                    "lat": 45.065444, 
                    "title": "Общество с ограниченной ответственностью «С - Дэнт»", 
                    "telephone": "8918-328-12-16", 
                    "long": 38.98276, 
                    "address": "350020, Россия, Краснодарский край, г. Краснодар, ул. Шоссе Нефтянников, д. 37/3"
                }, 
                {
                    "lat": 45.065444, 
                    "title": "Общество с ограниченной ответственностью «С - Дэнт»", 
                    "telephone": "8918-328-12-16", 
                    "long": 38.98276, 
                    "address": "350020, Россия, Краснодарский край, г. Краснодар, ул. Шоссе Нефтянников, д. 37/3"
                }, 
                {
                    "lat": 45.117406, 
                    "title": "Государственное бюджетное учреждение Краснодарского края «Многофункциональный спортивный комплекс»", 
                    "telephone": "(861) 2141111", 
                    "long": 38.981305, 
                    "address": "350087, Россия, Краснодарский край, г. Краснодар, ул. Пригородная, д. 24"
                }, 
                {
                    "lat": 45.117406, 
                    "title": "Государственное бюджетное учреждение Краснодарского края «Многофункциональный спортивный комплекс»", 
                    "telephone": "(861) 2141111", 
                    "long": 38.981305, 
                    "address": "350087, Россия, Краснодарский край, г. Краснодар, ул. Пригородная, д. 24"
                }, 
                {
                    "lat": 45.010764, 
                    "title": "Общество с ограниченной ответственностью «Круглогодичный Детский Оздоровительный Лагерь Санаторного Типа «Кубань»", 
                    "telephone": "(8918) 363-28-14", 
                    "long": 38.991555, 
                    "address": "350001, Россия, Краснодарский край, г. Краснодар, ул. Вишняковой, 1/8"
                }, 
                {
                    "lat": 45.010764, 
                    "title": "Общество с ограниченной ответственностью «Круглогодичный Детский Оздоровительный Лагерь Санаторного Типа «Кубань»", 
                    "telephone": "(8918) 363-28-14", 
                    "long": 38.991555, 
                    "address": "350001, Россия, Краснодарский край, г. Краснодар, ул. Вишняковой, 1/8"
                }, 
                {
                    "lat": 45.008502, 
                    "title": "Индивидуальный предприниматель \"Даниленко Наталья Львовна\"", 
                    "telephone": NaN, 
                    "long": 38.966411, 
                    "address": "350007, Краснодарский край, г. Краснодар, ул. Станкостроительная, 6"
                }, 
                {
                    "lat": 45.008502, 
                    "title": "Индивидуальный предприниматель \"Даниленко Наталья Львовна\"", 
                    "telephone": NaN, 
                    "long": 38.966411, 
                    "address": "350007, Краснодарский край, г. Краснодар, ул. Станкостроительная, 6"
                }, 
                {
                    "lat": 45.034763, 
                    "title": "Общество с ограниченной ответственностью «Апрельфармика»", 
                    "telephone": "(8861) 273-59-93", 
                    "long": 38.920983, 
                    "address": "350089, Россия, Краснодарский край, г. Краснодар, Проспект Чекистов, д. 35, помещение 63"
                }, 
                {
                    "lat": 45.034763, 
                    "title": "Общество с ограниченной ответственностью «Апрельфармика»", 
                    "telephone": "(8861) 273-59-93", 
                    "long": 38.920983, 
                    "address": "350089, Россия, Краснодарский край, г. Краснодар, Проспект Чекистов, д. 35, помещение 63"
                }, 
                {
                    "lat": 45.056059000000005, 
                    "title": "Общество с ограниченной ответственностью «Город здоровья»", 
                    "telephone": "9184902728", 
                    "long": 38.975439, 
                    "address": "350020, Россия, Краснодарский край, г. Краснодар, ул. Морская, д. 20"
                }, 
                {
                    "lat": 45.056059000000005, 
                    "title": "Общество с ограниченной ответственностью «Город здоровья»", 
                    "telephone": "9184902728", 
                    "long": 38.975439, 
                    "address": "350020, Россия, Краснодарский край, г. Краснодар, ул. Морская, д. 20"
                }, 
                {
                    "lat": 45.018958000000005, 
                    "title": "Индивидуальный предприниматель \"Бурлакова Наталия Валентиновна\"", 
                    "telephone": "(89284747018) ", 
                    "long": 39.211929, 
                    "address": "350037, Россия, Краснодарский край, г. Краснодар, х. Ленина, пер. Буковый, 26, кв. 6"
                }, 
                {
                    "lat": 45.018958000000005, 
                    "title": "Индивидуальный предприниматель \"Бурлакова Наталия Валентиновна\"", 
                    "telephone": "(89284747018) ", 
                    "long": 39.211929, 
                    "address": "350037, Россия, Краснодарский край, г. Краснодар, х. Ленина, пер. Буковый, 26, кв. 6"
                }, 
                {
                    "lat": 44.996986, 
                    "title": "Общество с ограниченной ответственностью «Родник»", 
                    "telephone": "(8918-48-53580) ", 
                    "long": 39.110285, 
                    "address": "350063, Россия, Краснодарский край, г. Краснодар, ул.Кубанонабережная, д. 7"
                }, 
                {
                    "lat": 44.996986, 
                    "title": "Общество с ограниченной ответственностью «Родник»", 
                    "telephone": "(8918-48-53580) ", 
                    "long": 39.110285, 
                    "address": "350063, Россия, Краснодарский край, г. Краснодар, ул.Кубанонабережная, д. 7"
                }, 
                {
                    "lat": 45.095465000000004, 
                    "title": "Общество с ограниченной ответственностью «ДЖИ ГРУПП КОНСАЛТИНГ»", 
                    "telephone": "(8861) 226-26-40", 
                    "long": 39.017965000000004, 
                    "address": "350087, Россия, Краснодарский край, г. Краснодар, ул. Карельская, д. 51, корпус 14, кв. 39"
                }, 
                {
                    "lat": 45.095465000000004, 
                    "title": "Общество с ограниченной ответственностью «ДЖИ ГРУПП КОНСАЛТИНГ»", 
                    "telephone": "(8861) 226-26-40", 
                    "long": 39.017965000000004, 
                    "address": "350087, Россия, Краснодарский край, г. Краснодар, ул. Карельская, д. 51, корпус 14, кв. 39"
                }, 
                {
                    "lat": 45.018844, 
                    "title": "Общество с ограниченной ответственностью «Казанские инструменты»", 
                    "telephone": NaN, 
                    "long": 38.961686, 
                    "address": "350063, Краснодарский край, г. Краснодар, ул. им. Митрофана Седина/Советская, д. 17/72, кв. 14"
                }, 
                {
                    "lat": 45.018844, 
                    "title": "Общество с ограниченной ответственностью «Казанские инструменты»", 
                    "telephone": NaN, 
                    "long": 38.961686, 
                    "address": "350063, Краснодарский край, г. Краснодар, ул. им. Митрофана Седина/Советская, д. 17/72, кв. 14"
                }, 
                {
                    "lat": 45.068671, 
                    "title": "Общество с ограниченной ответственностью \"Екатеринодар-2000\"", 
                    "telephone": "(861) 224-12-278", 
                    "long": 38.977846, 
                    "address": "350051, Россия, Краснодарский край, г. Краснодар, ул. Лузана, д.  8"
                }, 
                {
                    "lat": 45.068671, 
                    "title": "Общество с ограниченной ответственностью \"Екатеринодар-2000\"", 
                    "telephone": "(861) 224-12-278", 
                    "long": 38.977846, 
                    "address": "350051, Россия, Краснодарский край, г. Краснодар, ул. Лузана, д.  8"
                }, 
                {
                    "lat": 45.098939, 
                    "title": "Индивидуальный предприниматель \"Манешина Валентина Егоровна\"", 
                    "telephone": "(8918-480-61-74) ", 
                    "long": 38.975528999999995, 
                    "address": "350072, Россия, Краснодарский край, г. Краснодар, Прикубанский округ, ул. Кореновская, д. 45, кв. 34"
                }, 
                {
                    "lat": 45.098939, 
                    "title": "Индивидуальный предприниматель \"Манешина Валентина Егоровна\"", 
                    "telephone": "(8918-480-61-74) ", 
                    "long": 38.975528999999995, 
                    "address": "350072, Россия, Краснодарский край, г. Краснодар, Прикубанский округ, ул. Кореновская, д. 45, кв. 34"
                }, 
                {
                    "lat": 45.053627, 
                    "title": "Муниципальное бюджетное учреждение здравоохранения Краснодарская городская клиническая больница скорой медицинской помощи", 
                    "telephone": "257-04-26, 25224-26", 
                    "long": 38.997591, 
                    "address": "350042, Россия, Краснодарский край, г. Краснодар, Центральный внутригородской округ, ул. 40 лет Победы, д. 14."
                }, 
                {
                    "lat": 45.053627, 
                    "title": "Муниципальное бюджетное учреждение здравоохранения Краснодарская городская клиническая больница скорой медицинской помощи", 
                    "telephone": "257-04-26, 25224-26", 
                    "long": 38.997591, 
                    "address": "350042, Россия, Краснодарский край, г. Краснодар, Центральный внутригородской округ, ул. 40 лет Победы, д. 14."
                }, 
                {
                    "lat": 45.034999, 
                    "title": "Муниципальное бюджетное  учреждение здравоохранения Городская клиническая больница № 1", 
                    "telephone": NaN, 
                    "long": 38.972367, 
                    "address": "350000, Россия, Краснодарский край, г. Краснодар, Западный внутригородской округ, ул. Красная, д. 103/ Длинная, д.123."
                }, 
                {
                    "lat": 45.034999, 
                    "title": "Муниципальное бюджетное  учреждение здравоохранения Городская клиническая больница № 1", 
                    "telephone": NaN, 
                    "long": 38.972367, 
                    "address": "350000, Россия, Краснодарский край, г. Краснодар, Западный внутригородской округ, ул. Красная, д. 103/ Длинная, д.123."
                }, 
                {
                    "lat": 45.038649, 
                    "title": "Общество с ограниченной ответственностью «АГНИЯ»", 
                    "telephone": NaN, 
                    "long": 38.911811, 
                    "address": "350089, Россия, Краснодарский край, г. Краснодар, ул. 70 лет Октября, д. 17, оф. 10"
                }, 
                {
                    "lat": 45.038649, 
                    "title": "Общество с ограниченной ответственностью «АГНИЯ»", 
                    "telephone": NaN, 
                    "long": 38.911811, 
                    "address": "350089, Россия, Краснодарский край, г. Краснодар, ул. 70 лет Октября, д. 17, оф. 10"
                }, 
                {
                    "lat": 45.049832, 
                    "title": "Общество с ограниченной ответственностью \"Аптека \"Фарма-Плюс\"", 
                    "telephone": "(861)2103676", 
                    "long": 38.981215, 
                    "address": "350020, Краснодарский край, г. Краснодар, ул. Одесская, 40"
                }, 
                {
                    "lat": 45.049832, 
                    "title": "Общество с ограниченной ответственностью \"Аптека \"Фарма-Плюс\"", 
                    "telephone": "(861)2103676", 
                    "long": 38.981215, 
                    "address": "350020, Краснодарский край, г. Краснодар, ул. Одесская, 40"
                }, 
                {
                    "lat": 45.233197, 
                    "title": "Индивидуальный предприниматель \"Кузьмина Юлия Анатольевна\"", 
                    "telephone": NaN, 
                    "long": 38.283449, 
                    "address": "353814, Россия, Краснодарский край, Красноармейский район, г. Краснодар, ул. Чекунова, д. 9"
                }, 
                {
                    "lat": 45.233197, 
                    "title": "Индивидуальный предприниматель \"Кузьмина Юлия Анатольевна\"", 
                    "telephone": NaN, 
                    "long": 38.283449, 
                    "address": "353814, Россия, Краснодарский край, Красноармейский район, г. Краснодар, ул. Чекунова, д. 9"
                }, 
                {
                    "lat": 45.049787, 
                    "title": "Общество с ограниченной ответственностью «Аптеки Кубани»", 
                    "telephone": "(861) 2542772", 
                    "long": 38.994285, 
                    "address": "350042, Россия, Краснодарский край, г. Краснодар, ул. Гражданская, 4."
                }, 
                {
                    "lat": 45.049787, 
                    "title": "Общество с ограниченной ответственностью «Аптеки Кубани»", 
                    "telephone": "(861) 2542772", 
                    "long": 38.994285, 
                    "address": "350042, Россия, Краснодарский край, г. Краснодар, ул. Гражданская, 4."
                }, 
                {
                    "lat": 45.025393, 
                    "title": "Муниципальное бюджетное учреждение здравоохранения Городская поликлиника № 15", 
                    "telephone": "2338149", 
                    "long": 39.034808, 
                    "address": "350075, Россия, Краснодарский край, г. Краснодар, Карасунский внутригородской округ, ул.им.  Селезнева, д. 94"
                }, 
                {
                    "lat": 45.025393, 
                    "title": "Муниципальное бюджетное учреждение здравоохранения Городская поликлиника № 15", 
                    "telephone": "2338149", 
                    "long": 39.034808, 
                    "address": "350075, Россия, Краснодарский край, г. Краснодар, Карасунский внутригородской округ, ул.им.  Селезнева, д. 94"
                }, 
                {
                    "lat": 45.070906, 
                    "title": "Общество с ограниченной ответственностью «Аптека «Ирис»", 
                    "telephone": "(8903) 4470049", 
                    "long": 39.000367, 
                    "address": "350072, Россия, Краснодарский край, г. Краснодар, ул. Московская, д. 79/1."
                }, 
                {
                    "lat": 45.070906, 
                    "title": "Общество с ограниченной ответственностью «Аптека «Ирис»", 
                    "telephone": "(8903) 4470049", 
                    "long": 39.000367, 
                    "address": "350072, Россия, Краснодарский край, г. Краснодар, ул. Московская, д. 79/1."
                }, 
                {
                    "lat": 45.033004999999996, 
                    "title": "Индивидуальный предприниматель \"Кузовихин Сергей Михайлович\"", 
                    "telephone": NaN, 
                    "long": 38.972142, 
                    "address": "350000, Россия, Краснодарский край, г. Краснодар, ул. Пашковская, д. 76, кв. 5"
                }, 
                {
                    "lat": 45.033004999999996, 
                    "title": "Индивидуальный предприниматель \"Кузовихин Сергей Михайлович\"", 
                    "telephone": NaN, 
                    "long": 38.972142, 
                    "address": "350000, Россия, Краснодарский край, г. Краснодар, ул. Пашковская, д. 76, кв. 5"
                }, 
                {
                    "lat": 45.030604, 
                    "title": "Федеральное казенное учреждение \"Главное бюро медико-социальной экспертизы по Краснодарскому краю\" Министерства труда и социальной защиты Российской Федерации", 
                    "telephone": "8 (861) 259-33-67", 
                    "long": 38.966653, 
                    "address": "350000, Россия, Краснодарский край, г. Краснодар, ул. Чапаева, д. 58"
                }, 
                {
                    "lat": 45.030604, 
                    "title": "Федеральное казенное учреждение \"Главное бюро медико-социальной экспертизы по Краснодарскому краю\" Министерства труда и социальной защиты Российской Федерации", 
                    "telephone": "8 (861) 259-33-67", 
                    "long": 38.966653, 
                    "address": "350000, Россия, Краснодарский край, г. Краснодар, ул. Чапаева, д. 58"
                }, 
                {
                    "lat": 45.026075, 
                    "title": "Индивидуальный предприниматель \"Васильченко Станислав Валерьевич\"", 
                    "telephone": NaN, 
                    "long": 39.06819, 
                    "address": "350018, Россия, Краснодарский край, г. Краснодар, ул. Онежская, д. 5, корпус 1, кв. 59"
                }, 
                {
                    "lat": 45.026075, 
                    "title": "Индивидуальный предприниматель \"Васильченко Станислав Валерьевич\"", 
                    "telephone": NaN, 
                    "long": 39.06819, 
                    "address": "350018, Россия, Краснодарский край, г. Краснодар, ул. Онежская, д. 5, корпус 1, кв. 59"
                }, 
                {
                    "lat": 45.023959999999995, 
                    "title": "Общество с ограниченной ответственностью «Стоматология Шлепковых»", 
                    "telephone": NaN, 
                    "long": 39.043935, 
                    "address": "350075, Краснодарский край, г. Краснодар, ул. Стасова, 174/1."
                }, 
                {
                    "lat": 45.023959999999995, 
                    "title": "Общество с ограниченной ответственностью «Стоматология Шлепковых»", 
                    "telephone": NaN, 
                    "long": 39.043935, 
                    "address": "350075, Краснодарский край, г. Краснодар, ул. Стасова, 174/1."
                }, 
                {
                    "lat": 45.00905, 
                    "title": "государственное бюджетное учреждение здравоохранения \"Детский санаторий \"Тополёк\" министерства здравоохранения Краснодарского края", 
                    "telephone": "8(861) 237-79-10", 
                    "long": 39.080937, 
                    "address": "350061, Россия, Краснодарский край, г. Краснодар, ул. Благоева, д. 17"
                }, 
                {
                    "lat": 45.00905, 
                    "title": "государственное бюджетное учреждение здравоохранения \"Детский санаторий \"Тополёк\" министерства здравоохранения Краснодарского края", 
                    "telephone": "8(861) 237-79-10", 
                    "long": 39.080937, 
                    "address": "350061, Россия, Краснодарский край, г. Краснодар, ул. Благоева, д. 17"
                }, 
                {
                    "lat": 45.036069, 
                    "title": "Общество с ограниченной ответственностью Диагностико-восстановительный центр «ОРБИТА»", 
                    "telephone": NaN, 
                    "long": 39.01386, 
                    "address": "350038, Россия, Краснодарский край, г. Краснодар, ул.Филатова, д. 17"
                }, 
                {
                    "lat": 45.036069, 
                    "title": "Общество с ограниченной ответственностью Диагностико-восстановительный центр «ОРБИТА»", 
                    "telephone": NaN, 
                    "long": 39.01386, 
                    "address": "350038, Россия, Краснодарский край, г. Краснодар, ул.Филатова, д. 17"
                }, 
                {
                    "lat": 45.053328, 
                    "title": "Общество с ограниченной ответственностью «Здоровый Век»", 
                    "telephone": "(8988) 96-68-007", 
                    "long": 39.018648, 
                    "address": "350029, Россия, Краснодарский край, г. Краснодар, ул. Российская, д. 72, корп. 5, помещ. 77-91"
                }, 
                {
                    "lat": 45.053328, 
                    "title": "Общество с ограниченной ответственностью «Здоровый Век»", 
                    "telephone": "(8988) 96-68-007", 
                    "long": 39.018648, 
                    "address": "350029, Россия, Краснодарский край, г. Краснодар, ул. Российская, д. 72, корп. 5, помещ. 77-91"
                }, 
                {
                    "lat": 45.056518, 
                    "title": "Общество с ограниченной ответственностью «Здоровье Кубани»", 
                    "telephone": "(8918) 4370304", 
                    "long": 39.003269, 
                    "address": "350072, Россия, Краснодарский край, г. Краснодар, ул. Московская, д. 40"
                }, 
                {
                    "lat": 45.056518, 
                    "title": "Общество с ограниченной ответственностью «Здоровье Кубани»", 
                    "telephone": "(8918) 4370304", 
                    "long": 39.003269, 
                    "address": "350072, Россия, Краснодарский край, г. Краснодар, ул. Московская, д. 40"
                }, 
                {
                    "lat": 45.012007000000004, 
                    "title": "Общество с ограниченной ответственностью «Арго»", 
                    "telephone": "(8918) 395-98-70", 
                    "long": 38.995956, 
                    "address": "350001, Россия, Краснодарский край, г. Краснодар, ул. Вишняковой, д. 2"
                }, 
                {
                    "lat": 45.012007000000004, 
                    "title": "Общество с ограниченной ответственностью «Арго»", 
                    "telephone": "(8918) 395-98-70", 
                    "long": 38.995956, 
                    "address": "350001, Россия, Краснодарский край, г. Краснодар, ул. Вишняковой, д. 2"
                }, 
                {
                    "lat": 45.085436, 
                    "title": "Общество с ограниченной ответственностью «ПромАльпСтройМонтаж»", 
                    "telephone": "(8988) 622-16-62", 
                    "long": 39.01174, 
                    "address": "350072, Россия, Краснодарский край, г. Краснодар, ул. Чайковского, д. 27"
                }, 
                {
                    "lat": 45.085436, 
                    "title": "Общество с ограниченной ответственностью «ПромАльпСтройМонтаж»", 
                    "telephone": "(8988) 622-16-62", 
                    "long": 39.01174, 
                    "address": "350072, Россия, Краснодарский край, г. Краснодар, ул. Чайковского, д. 27"
                }, 
                {
                    "lat": 45.061248, 
                    "title": "Государственное бюджетное учреждение здравоохранения «Краевой детский центр медицинской реабилитации» министерства здравоохранения Краснодарского края", 
                    "telephone": "8 (861) 226-47-55", 
                    "long": 38.957471999999996, 
                    "address": "350062, Россия, Краснодарский край, г. Краснодар, ул. Атарбекова, д. 37"
                }, 
                {
                    "lat": 45.061248, 
                    "title": "Государственное бюджетное учреждение здравоохранения «Краевой детский центр медицинской реабилитации» министерства здравоохранения Краснодарского края", 
                    "telephone": "8 (861) 226-47-55", 
                    "long": 38.957471999999996, 
                    "address": "350062, Россия, Краснодарский край, г. Краснодар, ул. Атарбекова, д. 37"
                }, 
                {
                    "lat": 45.029687, 
                    "title": "Общество с ограниченной ответственностью «Медицинский координационный центр-23»", 
                    "telephone": "(8861) 279-06-10, 279-06-11", 
                    "long": 38.973256, 
                    "address": "350000, Россия, Краснодарский край, г. Краснодар, Западный внутригородской округ, ул. Чапаева, д. 77, литер Я"
                }, 
                {
                    "lat": 45.029687, 
                    "title": "Общество с ограниченной ответственностью «Медицинский координационный центр-23»", 
                    "telephone": "(8861) 279-06-10, 279-06-11", 
                    "long": 38.973256, 
                    "address": "350000, Россия, Краснодарский край, г. Краснодар, Западный внутригородской округ, ул. Чапаева, д. 77, литер Я"
                }, 
                {
                    "lat": 45.02468, 
                    "title": "Государственное казенное учреждение по эксплуатации и содержанию административных зданий администрации Краснодарского края", 
                    "telephone": "(861) 2683267", 
                    "long": 38.966491999999995, 
                    "address": "350000, Россия, Краснодарский край, г. Краснодар, ул. Ленина, дом 37"
                }, 
                {
                    "lat": 45.02468, 
                    "title": "Государственное казенное учреждение по эксплуатации и содержанию административных зданий администрации Краснодарского края", 
                    "telephone": "(861) 2683267", 
                    "long": 38.966491999999995, 
                    "address": "350000, Россия, Краснодарский край, г. Краснодар, ул. Ленина, дом 37"
                }, 
                {
                    "lat": 45.02733, 
                    "title": "Общество с ограниченной ответственностью \"Фармсервис\"", 
                    "telephone": "(918) 4573169", 
                    "long": 39.060357, 
                    "address": "350018, Россия, Краснодарский край, г. Краснодар, улица Сормовская,  дом 7  литер Г"
                }, 
                {
                    "lat": 45.02733, 
                    "title": "Общество с ограниченной ответственностью \"Фармсервис\"", 
                    "telephone": "(918) 4573169", 
                    "long": 39.060357, 
                    "address": "350018, Россия, Краснодарский край, г. Краснодар, улица Сормовская,  дом 7  литер Г"
                }, 
                {
                    "lat": 45.05101, 
                    "title": "Общество с ограниченной ответственностью \"МТ-Фарма\"", 
                    "telephone": "(861) 219-79-40", 
                    "long": 38.959853, 
                    "address": "350049, Россия, Краснодарский край, г. Краснодар, ул. Красных Партизан, д. 463"
                }, 
                {
                    "lat": 45.05101, 
                    "title": "Общество с ограниченной ответственностью \"МТ-Фарма\"", 
                    "telephone": "(861) 219-79-40", 
                    "long": 38.959853, 
                    "address": "350049, Россия, Краснодарский край, г. Краснодар, ул. Красных Партизан, д. 463"
                }, 
                {
                    "lat": 45.025782, 
                    "title": "Муниципальное бюджетное учреждение здравоохранения Родильный дом", 
                    "telephone": "88612683429", 
                    "long": 38.968881, 
                    "address": "350063, Россия, Краснодарский край, г. Краснодар, Западный внутригородской округ, ул. Комсомольская/Рашпилевская, д. 44/16"
                }, 
                {
                    "lat": 45.025782, 
                    "title": "Муниципальное бюджетное учреждение здравоохранения Родильный дом", 
                    "telephone": "88612683429", 
                    "long": 38.968881, 
                    "address": "350063, Россия, Краснодарский край, г. Краснодар, Западный внутригородской округ, ул. Комсомольская/Рашпилевская, д. 44/16"
                }, 
                {
                    "lat": 45.021297, 
                    "title": "Индивидуальный предприниматель \"Игишев Владимир Григорьевич\"", 
                    "telephone": NaN, 
                    "long": 39.110384, 
                    "address": "350910, Краснодарский край, г. Краснодар, пос. Пашковский, ул. Суворова, д. 61"
                }, 
                {
                    "lat": 45.021297, 
                    "title": "Индивидуальный предприниматель \"Игишев Владимир Григорьевич\"", 
                    "telephone": NaN, 
                    "long": 39.110384, 
                    "address": "350910, Краснодарский край, г. Краснодар, пос. Пашковский, ул. Суворова, д. 61"
                }, 
                {
                    "lat": 45.073369, 
                    "title": "Общество с ограниченной ответственностью «Магнат»", 
                    "telephone": "(8918) 666-33-36", 
                    "long": 38.980092, 
                    "address": "350051, Россия, Краснодарский край, г. Краснодар, проезд Репина, д. 24"
                }, 
                {
                    "lat": 45.073369, 
                    "title": "Общество с ограниченной ответственностью «Магнат»", 
                    "telephone": "(8918) 666-33-36", 
                    "long": 38.980092, 
                    "address": "350051, Россия, Краснодарский край, г. Краснодар, проезд Репина, д. 24"
                }, 
                {
                    "lat": 45.053984, 
                    "title": "Индивидуальный предприниматель \"Поршина Татьяна Григорьевна\"", 
                    "telephone": "(8918) 125-52-21", 
                    "long": 38.955254, 
                    "address": "350000, Россия, Краснодарский край, г. Краснодар, ул. Воровского, д. 219, кв. 45"
                }, 
                {
                    "lat": 45.053984, 
                    "title": "Индивидуальный предприниматель \"Поршина Татьяна Григорьевна\"", 
                    "telephone": "(8918) 125-52-21", 
                    "long": 38.955254, 
                    "address": "350000, Россия, Краснодарский край, г. Краснодар, ул. Воровского, д. 219, кв. 45"
                }, 
                {
                    "lat": 45.068181, 
                    "title": "Общество с ограниченной ответственностью \"Газпром  трансгаз Краснодар\"", 
                    "telephone": "89185574339", 
                    "long": 38.981889, 
                    "address": "350051, Россия, Краснодарский край, г. Краснодар, ул. Шоссе Нефтяников, 53"
                }, 
                {
                    "lat": 45.068181, 
                    "title": "Общество с ограниченной ответственностью \"Газпром  трансгаз Краснодар\"", 
                    "telephone": "89185574339", 
                    "long": 38.981889, 
                    "address": "350051, Россия, Краснодарский край, г. Краснодар, ул. Шоссе Нефтяников, 53"
                }, 
                {
                    "lat": 45.006296999999996, 
                    "title": "Общество с ограниченной ответственностью «Бережная аптека «Апрель»", 
                    "telephone": "(8861) 2735993", 
                    "long": 38.966662, 
                    "address": "350007, Россия, Краснодарский край, г. Краснодар, ул. Захарова, д. 25, офис 1."
                }, 
                {
                    "lat": 45.006296999999996, 
                    "title": "Общество с ограниченной ответственностью «Бережная аптека «Апрель»", 
                    "telephone": "(8861) 2735993", 
                    "long": 38.966662, 
                    "address": "350007, Россия, Краснодарский край, г. Краснодар, ул. Захарова, д. 25, офис 1."
                }, 
                {
                    "lat": 45.025271999999994, 
                    "title": "Государственное бюджетное учреждение Краснодарского края «Центр спортивной подготовки «УОР»", 
                    "telephone": "(8988) 24-24-800", 
                    "long": 38.998588, 
                    "address": "350038, Россия, Краснодарский край, г. Краснодар, ул. Железнодорожная, д. 49"
                }, 
                {
                    "lat": 45.025271999999994, 
                    "title": "Государственное бюджетное учреждение Краснодарского края «Центр спортивной подготовки «УОР»", 
                    "telephone": "(8988) 24-24-800", 
                    "long": 38.998588, 
                    "address": "350038, Россия, Краснодарский край, г. Краснодар, ул. Железнодорожная, д. 49"
                }, 
                {
                    "lat": 45.099969, 
                    "title": "Общество с ограниченной ответственностью «Доктор Пилюлькин»", 
                    "telephone": "(8928) 2085846", 
                    "long": 38.971639, 
                    "address": "350005, Россия, Краснодарский край, г. Краснодар, ул. Кореновская, д. 15/1."
                }, 
                {
                    "lat": 45.099969, 
                    "title": "Общество с ограниченной ответственностью «Доктор Пилюлькин»", 
                    "telephone": "(8928) 2085846", 
                    "long": 38.971639, 
                    "address": "350005, Россия, Краснодарский край, г. Краснодар, ул. Кореновская, д. 15/1."
                }, 
                {
                    "lat": 45.050857, 
                    "title": "Общество с ограниченной ответственностью «ЛЕТТИ»", 
                    "telephone": NaN, 
                    "long": 39.00193, 
                    "address": "350072, Россия, Краснодарский край, г. Краснодар, ул. Московская, д. 65, кв. 3,4"
                }, 
                {
                    "lat": 45.050857, 
                    "title": "Общество с ограниченной ответственностью «ЛЕТТИ»", 
                    "telephone": NaN, 
                    "long": 39.00193, 
                    "address": "350072, Россия, Краснодарский край, г. Краснодар, ул. Московская, д. 65, кв. 3,4"
                }, 
                {
                    "lat": 45.039795, 
                    "title": "Общество с ограниченной ответственностью «Актив-Стиль»", 
                    "telephone": "(8988) 954-54-34", 
                    "long": 38.976436, 
                    "address": "350000, Россия, Краснодарский край, г. Краснодар, ул. Красная, дом 160, офис 408"
                }, 
                {
                    "lat": 45.039795, 
                    "title": "Общество с ограниченной ответственностью «Актив-Стиль»", 
                    "telephone": "(8988) 954-54-34", 
                    "long": 38.976436, 
                    "address": "350000, Россия, Краснодарский край, г. Краснодар, ул. Красная, дом 160, офис 408"
                }, 
                {
                    "lat": 45.107946999999996, 
                    "title": "Муниципальное бюджетное  учреждение здравоохранения Городская поликлиника № 13 \"Калининская\"", 
                    "telephone": "(861) 2258785", 
                    "long": 38.956224, 
                    "address": "350087, Россия, Краснодарский край, г. Краснодар, Прикубанский внутригородской округ, ул. им. Силантьева Ю.В., д. 76/1."
                }, 
                {
                    "lat": 45.107946999999996, 
                    "title": "Муниципальное бюджетное  учреждение здравоохранения Городская поликлиника № 13 \"Калининская\"", 
                    "telephone": "(861) 2258785", 
                    "long": 38.956224, 
                    "address": "350087, Россия, Краснодарский край, г. Краснодар, Прикубанский внутригородской округ, ул. им. Силантьева Ю.В., д. 76/1."
                }, 
                {
                    "lat": 45.024355, 
                    "title": "Индивидуальный предприниматель \"Гуляева Екатерина Александровна\"", 
                    "telephone": "(928) 2150907", 
                    "long": 38.984763, 
                    "address": "350000, Россия, Краснодарский край, г. Краснодар, ул. Гоголя, д. 124"
                }, 
                {
                    "lat": 45.024355, 
                    "title": "Индивидуальный предприниматель \"Гуляева Екатерина Александровна\"", 
                    "telephone": "(928) 2150907", 
                    "long": 38.984763, 
                    "address": "350000, Россия, Краснодарский край, г. Краснодар, ул. Гоголя, д. 124"
                }, 
                {
                    "lat": 45.026075, 
                    "title": "Общество с ограниченной ответственностью «Клиника МАММЭ»", 
                    "telephone": "(8800) 100-76-32", 
                    "long": 39.027595, 
                    "address": "350075, Россия, Краснодарский край, г. Краснодар, проезд Карасунский, д. 15\\2"
                }, 
                {
                    "lat": 45.026075, 
                    "title": "Общество с ограниченной ответственностью «Клиника МАММЭ»", 
                    "telephone": "(8800) 100-76-32", 
                    "long": 39.027595, 
                    "address": "350075, Россия, Краснодарский край, г. Краснодар, проезд Карасунский, д. 15\\2"
                }, 
                {
                    "lat": 45.031279, 
                    "title": "Общество с ограниченной ответственностью «Виэль»", 
                    "telephone": "(8938) 429-23-28", 
                    "long": 38.909484, 
                    "address": "350089, Россия, Краснодарский край, г. Краснодар, ул. Бульвар Платановый, д. 4, офис 6"
                }, 
                {
                    "lat": 45.031279, 
                    "title": "Общество с ограниченной ответственностью «Виэль»", 
                    "telephone": "(8938) 429-23-28", 
                    "long": 38.909484, 
                    "address": "350089, Россия, Краснодарский край, г. Краснодар, ул. Бульвар Платановый, д. 4, офис 6"
                }, 
                {
                    "lat": 45.023877, 
                    "title": "Общество с ограниченной ответственностью «МедТест»", 
                    "telephone": "(1984415175) ", 
                    "long": 38.970157, 
                    "address": "350078, Россия, Краснодарский край, г. Краснодар, ул. им. Котлярова Н.С., д. № 17, кв. 4"
                }, 
                {
                    "lat": 45.023877, 
                    "title": "Общество с ограниченной ответственностью «МедТест»", 
                    "telephone": "(1984415175) ", 
                    "long": 38.970157, 
                    "address": "350078, Россия, Краснодарский край, г. Краснодар, ул. им. Котлярова Н.С., д. № 17, кв. 4"
                }, 
                {
                    "lat": 45.016977000000004, 
                    "title": "Муниципальное бюджетное учреждение здравоохранения Городская клиническая больница № 3", 
                    "telephone": "8-861-233-77-01", 
                    "long": 39.030398, 
                    "address": "350040, Россия, Краснодарский край, г. Краснодар, Центральный административный округ, ул. Айвазовского, д. 97"
                }, 
                {
                    "lat": 45.016977000000004, 
                    "title": "Муниципальное бюджетное учреждение здравоохранения Городская клиническая больница № 3", 
                    "telephone": "8-861-233-77-01", 
                    "long": 39.030398, 
                    "address": "350040, Россия, Краснодарский край, г. Краснодар, Центральный административный округ, ул. Айвазовского, д. 97"
                }, 
                {
                    "lat": 45.053492999999996, 
                    "title": "Общество с ограниченной ответственностью \"Сталкер\"", 
                    "telephone": "(918) 439-09-20", 
                    "long": 39.312388, 
                    "address": "350000, Россия, Краснодарский край, г. Краснодар, ст-ца Старокорсунская, ул. Ленина, д. 183"
                }, 
                {
                    "lat": 45.053492999999996, 
                    "title": "Общество с ограниченной ответственностью \"Сталкер\"", 
                    "telephone": "(918) 439-09-20", 
                    "long": 39.312388, 
                    "address": "350000, Россия, Краснодарский край, г. Краснодар, ст-ца Старокорсунская, ул. Ленина, д. 183"
                }, 
                {
                    "lat": 45.049915000000006, 
                    "title": "Государственное унитарное предприятие Краснодарского края \"Кубаньфармация\"", 
                    "telephone": "(8(861)) 20-111-20", 
                    "long": 38.985392, 
                    "address": "350020, Россия, Краснодарский край, г. Краснодар, ул.Одесская,41"
                }, 
                {
                    "lat": 45.049915000000006, 
                    "title": "Государственное унитарное предприятие Краснодарского края \"Кубаньфармация\"", 
                    "telephone": "(8(861)) 20-111-20", 
                    "long": 38.985392, 
                    "address": "350020, Россия, Краснодарский край, г. Краснодар, ул.Одесская,41"
                }, 
                {
                    "lat": 45.039853, 
                    "title": "Общество с ограниченной ответственностью «МК «Виктория К»", 
                    "telephone": NaN, 
                    "long": 38.998543, 
                    "address": "350002, Россия, Краснодарский край, г. Краснодар, ул. Березанская, д. 89"
                }, 
                {
                    "lat": 45.039853, 
                    "title": "Общество с ограниченной ответственностью «МК «Виктория К»", 
                    "telephone": NaN, 
                    "long": 38.998543, 
                    "address": "350002, Россия, Краснодарский край, г. Краснодар, ул. Березанская, д. 89"
                }, 
                {
                    "lat": 45.034369, 
                    "title": "Общество с ограниченной ответственностью «Фарм-Сервис»", 
                    "telephone": "(918) 2114655", 
                    "long": 38.917048, 
                    "address": "350000, Россия, Краснодарский край, г. Краснодар, ул. им. Калинина, д. 13, корпус 60, литер под/А, помещения № 25,26,27,28"
                }, 
                {
                    "lat": 45.034369, 
                    "title": "Общество с ограниченной ответственностью «Фарм-Сервис»", 
                    "telephone": "(918) 2114655", 
                    "long": 38.917048, 
                    "address": "350000, Россия, Краснодарский край, г. Краснодар, ул. им. Калинина, д. 13, корпус 60, литер под/А, помещения № 25,26,27,28"
                }, 
                {
                    "lat": 45.04945, 
                    "title": "Общество с ограниченной ответственностью \"Атридент\"", 
                    "telephone": "(91850) 98650", 
                    "long": 38.95661, 
                    "address": "350049, Россия, Краснодарский край, г. Краснодар, ул. им. Бабушкина/ул. им. Карла Маркса, д. 146/109, офис № 1"
                }, 
                {
                    "lat": 45.04945, 
                    "title": "Общество с ограниченной ответственностью \"Атридент\"", 
                    "telephone": "(91850) 98650", 
                    "long": 38.95661, 
                    "address": "350049, Россия, Краснодарский край, г. Краснодар, ул. им. Бабушкина/ул. им. Карла Маркса, д. 146/109, офис № 1"
                }, 
                {
                    "lat": 45.071752000000004, 
                    "title": "Публичное акционерное общество «Сатурн»", 
                    "telephone": "(88612) 520-39-90", 
                    "long": 38.994205, 
                    "address": "350072, Россия, Краснодарский край, г. Краснодар, ул. Солнечная, д. 6"
                }, 
                {
                    "lat": 45.071752000000004, 
                    "title": "Публичное акционерное общество «Сатурн»", 
                    "telephone": "(88612) 520-39-90", 
                    "long": 38.994205, 
                    "address": "350072, Россия, Краснодарский край, г. Краснодар, ул. Солнечная, д. 6"
                }, 
                {
                    "lat": 45.02833, 
                    "title": "Индивидуальный предприниматель \"Минасян Надежда Павловна\"", 
                    "telephone": "8-918-447-00-48", 
                    "long": 38.985275, 
                    "address": "350000, Россия, Краснодарский край, г. Краснодар, ул. Базовская, д. 66"
                },